{
 "type": "FeatureCollection",
 "features": [
  {
   "type": "Feature",
   "geometry": {
    "type": "Point",
    "coordinates": [
     116.17179900000006,
     -33.362109999999916
    ]
   },
   "properties": {
    "site_code": "S0005734",
    "short_name": "Wallsend",
    "commodity": "ENERGY",
    "target_com": "COAL",
    "site_stage": "Shut",
    "site_type_": "Mine",
    "site_sub_t": "Openpit",
    "distance": 1310.0641232237274
   }
  },
  {
   "type": "Feature",
   "geometry": {
    "type": "Point",
    "coordinates": [
     116.20769000000007,
     -33.34309499999995
    ]
   },
   "properties": {
    "site_code": "S0002583",
    "short_name": "Ewington 1",
    "commodity": "ENERGY",
    "target_com": "COAL",
    "site_stage": "Operating",
    "site_type_": "Mine",
    "site_sub_t": "Openpit",
    "distance": 4191.3915359897555
   }
  },
  {
   "type": "Feature",
   "geometry": {
    "type": "Point",
    "coordinates": [
     116.118103,
     -33.344600999999955
    ]
   },
   "properties": {
    "site_code": "S0005740",
    "short_name": "Westralia",
    "commodity": "ENERGY",
    "target_com": "COAL",
    "site_stage": "Shut",
    "site_type_": "Mine",
    "site_sub_t": "Unspecified",
    "distance": 4343.446336607007
   }
  },
  {
   "type": "Feature",
   "geometry": {
    "type": "Point",
    "coordinates": [
     116.12870000000011,
     -33.358218999999906
    ]
   },
   "properties": {
    "site_code": "S0005736",
    "short_name": "Cooperative",
    "commodity": "ENERGY",
    "target_com": "COAL",
    "site_stage": "Shut",
    "site_type_": "Mine",
    "site_sub_t": "Unspecified",
    "distance": 3338.030791209609
   }
  },
  {
   "type": "Feature",
   "geometry": {
    "type": "Point",
    "coordinates": [
     116.20839700000009,
     -33.347110999999934
    ]
   },
   "properties": {
    "site_code": "S0005725",
    "short_name": "Ewington Colliery",
    "commodity": "ENERGY",
    "target_com": "COAL",
    "site_stage": "Shut",
    "site_type_": "Mine",
    "site_sub_t": "Unspecified",
    "distance": 4169.854971277129
   }
  },
  {
   "type": "Feature",
   "geometry": {
    "type": "Point",
    "coordinates": [
     116.21103200000006,
     -33.36301899999995
    ]
   },
   "properties": {
    "site_code": "S0225254",
    "short_name": "Ewington West",
    "commodity": "ENERGY",
    "target_com": "COAL",
    "site_stage": "Proposed",
    "site_type_": "Mine",
    "site_sub_t": "Openpit",
    "distance": 4532.417763775516
   }
  },
  {
   "type": "Feature",
   "geometry": {
    "type": "Point",
    "coordinates": [
     116.19098900000007,
     -33.364762999999925
    ]
   },
   "properties": {
    "site_code": "S0017771",
    "short_name": "Shotts",
    "commodity": "CONSTRUCTION MATERIAL",
    "target_com": "CLAYS",
    "site_stage": "Shut",
    "site_type_": "Mine",
    "site_sub_t": "Unspecified",
    "distance": 2867.629902380425
   }
  },
  {
   "type": "Feature",
   "geometry": {
    "type": "Point",
    "coordinates": [
     116.168404,
     -33.364867999999944
    ]
   },
   "properties": {
    "site_code": "S0005735",
    "short_name": "Wallsend Colliery",
    "commodity": "ENERGY",
    "target_com": "COAL",
    "site_stage": "Shut",
    "site_type_": "Mine",
    "site_sub_t": "Unspecified",
    "distance": 1454.8965023915684
   }
  },
  {
   "type": "Feature",
   "geometry": {
    "type": "Point",
    "coordinates": [
     116.18229700000008,
     -33.371280999999954
    ]
   },
   "properties": {
    "site_code": "S0005737",
    "short_name": "Proprietary",
    "commodity": "ENERGY",
    "target_com": "COAL",
    "site_stage": "Shut",
    "site_type_": "Mine",
    "site_sub_t": "Unspecified",
    "distance": 2710.8449828986013
   }
  },
  {
   "type": "Feature",
   "geometry": {
    "type": "Point",
    "coordinates": [
     116.13929700000004,
     -33.38999899999994
    ]
   },
   "properties": {
    "site_code": "S0005730",
    "short_name": "Phoenix",
    "commodity": "ENERGY",
    "target_com": "COAL",
    "site_stage": "Shut",
    "site_type_": "Mine",
    "site_sub_t": "Unspecified",
    "distance": 4773.3522478556115
   }
  },
  {
   "type": "Feature",
   "geometry": {
    "type": "Point",
    "coordinates": [
     116.1381,
     -33.38642099999993
    ]
   },
   "properties": {
    "site_code": "S0004510",
    "short_name": "Wyvern",
    "commodity": "ENERGY",
    "target_com": "COAL",
    "site_stage": "Shut",
    "site_type_": "Mine",
    "site_sub_t": "Unspecified",
    "distance": 4486.786841082419
   }
  },
  {
   "type": "Feature",
   "geometry": {
    "type": "Point",
    "coordinates": [
     116.13659700000005,
     -33.383887999999956
    ]
   },
   "properties": {
    "site_code": "S0005731",
    "short_name": "Griffin",
    "commodity": "ENERGY",
    "target_com": "COAL",
    "site_stage": "Shut",
    "site_type_": "Mine",
    "site_sub_t": "Unspecified",
    "distance": 4331.799622027852
   }
  }
 ]
}
